{
"type": "FeatureCollection",
"name": "geolocated_jazz_clubs",
"crs": { "type": "name", "properties": { "name": "urn:ogc:def:crs:OGC:1.3:CRS84" } },
"features": [
{ "type": "Feature", "properties": { "name": "1803", "address": "82 Reade Street", "city": "New York City" }, "geometry": { "type": "Point", "coordinates": [ -74.0069967, 40.7153692 ] } },
{ "type": "Feature", "properties": { "name": "449 LA SCAT", "address": "449 Lenox Ave (Malcolm X)", "city": "New York City" }, "geometry": { "type": "Point", "coordinates": [ -73.9423922, 40.8125728 ] } },
{ "type": "Feature", "properties": { "name": "Arthur's Tavern", "address": "57 Grove Street", "city": "New York City" }, "geometry": { "type": "Point", "coordinates": [ -74.0034514, 40.7332008 ] } },
{ "type": "Feature", "properties": { "name": "Bar Next Door", "address": "129 MacDougal St.", "city": "New York City" }, "geometry": { "type": "Point", "coordinates": [ -74.0001141, 40.7306735 ] } },
{ "type": "Feature", "properties": { "name": "Birdland", "address": "315 W. 44th St.", "city": "New York City" }, "geometry": { "type": "Point", "coordinates": [ -73.9896379, 40.7590852 ] } },
{ "type": "Feature", "properties": { "name": "Blue Note", "address": "131 W. 3rd Street", "city": "New York City" }, "geometry": { "type": "Point", "coordinates": [ -74.0007251, 40.7308315 ] } },
{ "type": "Feature", "properties": { "name": "Cellar Dog", "address": "75 Christopher Street", "city": "New York City" }, "geometry": { "type": "Point", "coordinates": [ -74.0032842, 40.7336334 ] } },
{ "type": "Feature", "properties": { "name": "Chelsea Table and Stage", "address": "152 West 26th Street", "city": "New York City" }, "geometry": { "type": "Point", "coordinates": [ -73.9937463, 40.745629 ] } },
{ "type": "Feature", "properties": { "name": "Close Up", "address": "154 Orchard St.", "city": "New York City" }, "geometry": { "type": "Point", "coordinates": [ -73.9886623, 40.7207994 ] } },
{ "type": "Feature", "properties": { "name": "Club Room", "address": "310 West Broadway", "city": "New York City" }, "geometry": { "type": "Point", "coordinates": [ -74.0043561, 40.7220039 ] } },
{ "type": "Feature", "properties": { "name": "The Craftsman", "address": "3155 Broadway", "city": "New York City" }, "geometry": { "type": "Point", "coordinates": [ -73.9594744, 40.8147145 ] } },
{ "type": "Feature", "properties": { "name": "Dizzy's Club", "address": "10 Columbus Circle", "city": "New York City" }, "geometry": { "type": "Point", "coordinates": [ -73.9828519, 40.7682549 ] } },
{ "type": "Feature", "properties": { "name": "The Django", "address": "2 6th Ave.", "city": "New York City" }, "geometry": { "type": "Point", "coordinates": [ -74.0048375, 40.7193091 ] } },
{ "type": "Feature", "properties": { "name": "Drom", "address": "85 Avenue A", "city": "New York City" }, "geometry": { "type": "Point", "coordinates": [ -73.9844468, 40.7253267 ] } },
{ "type": "Feature", "properties": { "name": "The Ear Inn", "address": "326 Spring St", "city": "New York City" }, "geometry": { "type": "Point", "coordinates": [ -74.0094874, 40.7259033 ] } },
{ "type": "Feature", "properties": { "name": "Hamilton's Bar and Kitchen", "address": "3570 Broadway", "city": "New York City" }, "geometry": { "type": "Point", "coordinates": [ -73.9493563, 40.8274731 ] } },
{ "type": "Feature", "properties": { "name": "Iridium", "address": "1650 Broadway", "city": "New York City" }, "geometry": { "type": "Point", "coordinates": [ -73.9835031, 40.7618484 ] } },
{ "type": "Feature", "properties": { "name": "Knickerbocker Bar and Grill", "address": "33 University Place", "city": "New York City" }, "geometry": { "type": "Point", "coordinates": [ -73.9942396, 40.7319768 ] } },
{ "type": "Feature", "properties": { "name": "Lucille's", "address": "26 Macombs Place", "city": "New York City" }, "geometry": { "type": "Point", "coordinates": [ -73.9389702, 40.8259151 ] } },
{ "type": "Feature", "properties": { "name": "Mezzrow", "address": "163 West 10th St.", "city": "New York City" }, "geometry": { "type": "Point", "coordinates": [ -74.0018374, 40.7345395 ] } },
{ "type": "Feature", "properties": { "name": "Midnight Blue", "address": "106 East 19th St.", "city": "New York City" }, "geometry": { "type": "Point", "coordinates": [ -73.9874568, 40.7371981 ] } },
{ "type": "Feature", "properties": { "name": "Minton's Playhouse", "address": "206 W 118th Street", "city": "New York City" }, "geometry": { "type": "Point", "coordinates": [ -73.9525418, 40.8048166 ] } },
{ "type": "Feature", "properties": { "name": "New Amsterdam Musical Association (NAMA)", "address": "107 West 130th Street", "city": "New York City" }, "geometry": { "type": "Point", "coordinates": [ -73.9437458, 40.8113738 ] } },
{ "type": "Feature", "properties": { "name": "NUBLU", "address": "62 avenue C", "city": "New York City" }, "geometry": { "type": "Point", "coordinates": [ -73.9796866, 40.7225141 ] } },
{ "type": "Feature", "properties": { "name": "Parlor Entertainment", "address": "555 Edgecombe Ave", "city": "New York City" }, "geometry": { "type": "Point", "coordinates": [ -73.9391458, 40.833822 ] } },
{ "type": "Feature", "properties": { "name": "Patrick's Place", "address": "2835 Frederick Douglass Blvd", "city": "New York City" }, "geometry": { "type": "Point", "coordinates": [ -73.9392525, 40.8267964 ] } },
{ "type": "Feature", "properties": { "name": "Red Rooster Harlem", "address": "310 Lenox Ave", "city": "New York City" }, "geometry": { "type": "Point", "coordinates": [ -73.9449105, 40.8079659 ] } },
{ "type": "Feature", "properties": { "name": "Roulette", "address": "228 W. Broadway", "city": "New York City" }, "geometry": { "type": "Point", "coordinates": [ -74.0063459, 40.7194465 ] } },
{ "type": "Feature", "properties": { "name": "Rum House", "address": "228 West 47th Street", "city": "New York City" }, "geometry": { "type": "Point", "coordinates": [ -73.9862944, 40.759647 ] } },
{ "type": "Feature", "properties": { "name": "Silvana", "address": "300 W. 116th Street", "city": "New York City" }, "geometry": { "type": "Point", "coordinates": [ -73.9557598, 40.8043641 ] } },
{ "type": "Feature", "properties": { "name": "Smalls", "address": "183 W. 10th St.", "city": "New York City" }, "geometry": { "type": "Point", "coordinates": [ -74.0027033, 40.7343881 ] } },
{ "type": "Feature", "properties": { "name": "Smoke", "address": "2751 Broadway", "city": "New York City" }, "geometry": { "type": "Point", "coordinates": [ -73.9682057, 40.8011187 ] } },
{ "type": "Feature", "properties": { "name": "The Stone", "address": "55 west 13th street", "city": "New York City" }, "geometry": { "type": "Point", "coordinates": [ -73.9964883, 40.7365694 ] } },
{ "type": "Feature", "properties": { "name": "Swing 46", "address": "349 W. 46th Street", "city": "New York City" }, "geometry": { "type": "Point", "coordinates": [ -73.989737, 40.7606664 ] } },
{ "type": "Feature", "properties": { "name": "Terra Blues", "address": "149 Bleecker Street", "city": "New York City" }, "geometry": { "type": "Point", "coordinates": [ -73.999233, 40.7284569 ] } },
{ "type": "Feature", "properties": { "name": "Tomi Jazz", "address": "239 E 53rd St.", "city": "New York City" }, "geometry": { "type": "Point", "coordinates": [ -73.9677693, 40.7572284 ] } },
{ "type": "Feature", "properties": { "name": "Village Vanguard", "address": "178 7th Ave.", "city": "New York City" }, "geometry": { "type": "Point", "coordinates": [ -73.9970793, 40.7426734 ] } },
{ "type": "Feature", "properties": { "name": "Zinc Bar", "address": "82 West 3rd Street", "city": "New York City" }, "geometry": { "type": "Point", "coordinates": [ -73.9990683, 40.7297095 ] } }
]
}
